
  [
    {
      "id": 0,
      "Title": "VICTVS1",
      "Description": "VICTVS Exam 1",
      "Candidateid": 0,
      "CandidateName": "Wilmers",
      "Date": "05/05/2023 14:30:00",
      "LocationName": "London",
      "Latitude": 51.507351,
      "Longitude": -0.127758
    },
    {
      "id": 1,
      "Title": "VICTVS2",
      "Description": "VICTVS Exam 2",
      "Candidateid": 1,
      "CandidateName": "Donnelly",
      "Date": "05/05/2023 14:30:00",
      "LocationName": "Sydney",
      "Latitude": -33.868820,
      "Longitude": 151.209290
    },
    {
      "id": 2,
      "Title": "VICTVS3",
      "Description": "VICTVS Exam 3",
      "Candidateid": 0,
      "CandidateName": "Wilmers",
      "Date": "05/05/2023 14:30:00",
      "LocationName": "Leeds",
      "Latitude": 53.796496,
      "Longitude": -1.5710549
    },
    {
      "id": 3,
      "Title": "VICTVS4",
      "Description": "VICTVS Exam 4",
      "Candidateid": 0,
      "CandidateName": "Wilmers",
      "Date": "05/05/2023 14:30:00",
      "LocationName": "London",
      "Latitude": 51.458415,
      "Longitude": -0.105041
    },
    {
      "id": 4,
      "Title": "VICTVS5",
      "Description": "VICTVS Exam 5",
      "Candidateid": 2,
      "CandidateName": "Ward",
      "Date": "05/05/2023 14:30:00",
      "LocationName": "Berlin",
      "Latitude": 52.520008,
      "Longitude": 13.404954
    },
    {
      "id": 5,
      "Title": "VICTVS6",
      "Description": "VICTVS Exam 6",
      "Candidateid": 0,
      "CandidateName": "Wilmers",
      "Date": "05/05/2023 14:30:00",
      "LocationName": "Milan",
      "Latitude": 45.4784818,
      "Longitude": 9.1162384
    },
    {
      "id": 6,
      "Title": "VICTVS7",
      "Description": "VICTVS Exam 7",
      "Candidateid": 0,
      "CandidateName": "Wilmers",
      "Date": "05/05/2023 14:30:00",
      "LocationName": "Milan",
      "Latitude": 45.6180348,
      "Longitude": 9.2797631
    },
    {
      "id": 7,
      "Title": "VICTVS8",
      "Description": "VICTVS Exam 8",
      "Candidateid": 0,
      "CandidateName": "Wilmers",
      "Date": "05/05/2023 14:30:00",
      "LocationName": "London",
      "Latitude": 51.507351,
      "Longitude": -0.127758
    },
    {
      "id": 8,
      "Title": "VICTVS9",
      "Description": "VICTVS Exam 9",
      "Candidateid": 1,
      "CandidateName": "Donnelly",
      "Date": "05/05/2023 14:30:00",
      "LocationName": "Woking",
      "Latitude": 51.346118,
      "Longitude": -0.546046
    },
    {
      "id": 9,
      "Title": "VICTVS10",
      "Description": "VICTVS Exam 10",
      "Candidateid": 0,
      "CandidateName": "Wilmers",
      "Date": "05/05/2023 14:30:00",
      "LocationName": "London",
      "Latitude": 51.507351,
      "Longitude": -0.127758
    },
    {
      "id": 10,
      "Title": "VICTVS11",
      "Description": "VICTVS Exam 11",
      "Candidateid": 0,
      "CandidateName": "Wilmers",
      "Date": "05/05/2023 14:30:00",
      "LocationName": "London",
      "Latitude": 51.507351,
      "Longitude": -0.127758
    },
    {
      "id": 11,
      "Title": "VICTVS12",
      "Description": "VICTVS Exam 12",
      "Candidateid": 2,
      "CandidateName": "Ward",
      "Date": "05/05/2023 14:30:00",
      "LocationName": "Berlin",
      "Latitude": 52.520008,
      "Longitude": 13.404954
    },
    {
      "id": 12,
      "Title": "VICTVS13",
      "Description": "VICTVS Exam 13",
      "Candidateid": 0,
      "CandidateName": "Wilmers",
      "Date": "05/05/2023 14:30:00",
      "LocationName": "London",
      "Latitude": 51.507351,
      "Longitude": -0.127758
    },
    {
      "id": 13,
      "Title": "VICTVS14",
      "Description": "VICTVS Exam 14",
      "Candidateid": 3,
      "CandidateName": "Mateos",
      "Date": "05/05/2023 14:30:00",
      "LocationName": "New York",
      "Latitude": 40.713051,
      "Longitude": -74.007233
    },
    {
      "id": 14,
      "Title": "VICTVS15",
      "Description": "VICTVS Exam 15",
      "Candidateid": 0,
      "CandidateName": "Wilmers",
      "Date": "05/05/2023 14:30:00",
      "LocationName": "London",
      "Latitude": 51.50374306483545,
      "Longitude": -0.14074641294861687
    },
    {
      "id": 15,
      "Title": "VICTVS16",
      "Description": "VICTVS Exam 16",
      "Candidateid": 0,
      "CandidateName": "Wilmers",
      "Date": "05/05/2023 14:30:00",
      "LocationName": "London",
      "Latitude": 51.524254211507674,
      "Longitude": -0.09611445773921269
    },
    {
      "id": 16,
      "Title": "VICTVS17",
      "Description": "VICTVS Exam 17",
      "Candidateid": 0,
      "CandidateName": "Wilmers",
      "Date": "05/05/2023 14:30:00",
      "LocationName": "London",
      "Latitude": 51.513999792634216,
      "Longitude": -0.07482844833165063
    },
    {
      "id": 17,
      "Title": "VICTVS18",
      "Description": "VICTVS Exam 18",
      "Candidateid": 3,
      "CandidateName": "Mateos",
      "Date": "05/05/2023 14:30:00",
      "LocationName": "New York",
      "Latitude": 40.713051,
      "Longitude": -74.007233
    },
    {
      "id": 18,
      "Title": "VICTVS19",
      "Description": "VICTVS Exam 19",
      "Candidateid": 0,
      "CandidateName": "Wilmers",
      "Date": "17/06/2023 16:30:00",
      "LocationName": "London",
      "Latitude": 51.5144271061843,
      "Longitude": -0.07208186647261046
    },
    {
      "id": 19,
      "Title": "VICTVS20",
      "Description": "VICTVS Exam 20",
      "Candidateid": 0,
      "CandidateName": "Wilmers",
      "Date": "25/08/2023 09:30:00",
      "LocationName": "London",
      "Latitude": 51.5285262,
      "Longitude": -0.2664025
    }
  ]
